{
  "_schema": {
    "description": "Global humanitarian aid corridor network, FY 2024 (simulated). Nodes are coordination hubs and field operation sites. Links are active aid corridors with annual tonnage. Replace with real logistics, trade, transport, or relationship data.",
    "fields": {
      "nodes[].id":       "string, unique short identifier (e.g. 'GVA')",
      "nodes[].name":     "string, display name — city and country",
      "nodes[].lon":      "number, longitude in decimal degrees (WGS84)",
      "nodes[].lat":      "number, latitude in decimal degrees (WGS84)",
      "nodes[].type":     "string, 'hub' = coordination/donor centre | 'field' = recipient/operation site",
      "nodes[].org":      "string, primary organisation operating at this node",
      "links[].source":   "string, id of origin node",
      "links[].target":   "string, id of destination node",
      "links[].volume_mt":"number, annual aid tonnage in metric tons — encodes line weight",
      "links[].program":  "string, primary programme channel",
      "links[].active":   "boolean, whether corridor is currently operational"
    },
    "replace": "Swap lon/lat with your geographic coordinates and volume_mt with your chosen flow metric. Node type controls circle rendering (filled vs outlined). The stroke-width scale recalibrates automatically to your data's domain."
  },
  "nodes": [
    {"id":"GVA","name":"Geneva","lon":6.15,"lat":46.21,"type":"hub","org":"UNHCR / WFP / ICRC"},
    {"id":"JFK","name":"New York","lon":-74.00,"lat":40.71,"type":"hub","org":"OCHA / UN Secretariat"},
    {"id":"WDC","name":"Washington DC","lon":-77.04,"lat":38.91,"type":"hub","org":"USAID"},
    {"id":"BRU","name":"Brussels","lon":4.35,"lat":50.85,"type":"hub","org":"ECHO / EU Aid"},
    {"id":"LON","name":"London","lon":-0.13,"lat":51.51,"type":"hub","org":"FCDO"},
    {"id":"NBO","name":"Nairobi","lon":36.82,"lat":-1.29,"type":"field","org":"UNHCR Regional Hub"},
    {"id":"AMM","name":"Amman","lon":35.94,"lat":31.96,"type":"field","org":"WFP Regional Bureau"},
    {"id":"BEY","name":"Beirut","lon":35.50,"lat":33.89,"type":"field","org":"UNICEF"},
    {"id":"ISB","name":"Islamabad","lon":73.04,"lat":33.72,"type":"field","org":"WFP Country Office"},
    {"id":"ADD","name":"Addis Ababa","lon":38.74,"lat":9.02,"type":"field","org":"AU / IGAD"},
    {"id":"DKR","name":"Dakar","lon":-17.45,"lat":14.69,"type":"field","org":"WFP Regional Bureau"},
    {"id":"KBL","name":"Kabul","lon":69.17,"lat":34.52,"type":"field","org":"WFP Country Office"},
    {"id":"IEV","name":"Kyiv","lon":30.52,"lat":50.45,"type":"field","org":"OCHA Ukraine"},
    {"id":"SJO","name":"San José","lon":-84.09,"lat":9.93,"type":"field","org":"WFP Regional Bureau"},
    {"id":"BKK","name":"Bangkok","lon":100.50,"lat":13.75,"type":"field","org":"UNHCR Regional Hub"}
  ],
  "links": [
    {"source":"GVA","target":"NBO","volume_mt":382000,"program":"Food Aid","active":true},
    {"source":"GVA","target":"AMM","volume_mt":291000,"program":"Shelter & NFI","active":true},
    {"source":"GVA","target":"ADD","volume_mt":218000,"program":"Food Aid","active":true},
    {"source":"GVA","target":"IEV","volume_mt":176000,"program":"Emergency Relief","active":true},
    {"source":"GVA","target":"DKR","volume_mt":134000,"program":"Food Aid","active":true},
    {"source":"JFK","target":"NBO","volume_mt":424000,"program":"Food Aid","active":true},
    {"source":"JFK","target":"AMM","volume_mt":307000,"program":"Protection","active":true},
    {"source":"JFK","target":"ADD","volume_mt":248000,"program":"Food Aid","active":true},
    {"source":"JFK","target":"SJO","volume_mt":138000,"program":"Emergency Relief","active":true},
    {"source":"JFK","target":"IEV","volume_mt":192000,"program":"Emergency Relief","active":true},
    {"source":"WDC","target":"NBO","volume_mt":374000,"program":"Food Aid","active":true},
    {"source":"WDC","target":"ISB","volume_mt":224000,"program":"Food Aid","active":true},
    {"source":"WDC","target":"KBL","volume_mt":187000,"program":"Emergency Relief","active":true},
    {"source":"WDC","target":"SJO","volume_mt":162000,"program":"Food Aid","active":true},
    {"source":"BRU","target":"NBO","volume_mt":278000,"program":"Food Aid","active":true},
    {"source":"BRU","target":"IEV","volume_mt":318000,"program":"Emergency Relief","active":true},
    {"source":"BRU","target":"AMM","volume_mt":154000,"program":"Shelter & NFI","active":true},
    {"source":"LON","target":"NBO","volume_mt":312000,"program":"Food Aid","active":true},
    {"source":"LON","target":"AMM","volume_mt":241000,"program":"Protection","active":true},
    {"source":"LON","target":"IEV","volume_mt":208000,"program":"Emergency Relief","active":true},
    {"source":"AMM","target":"BEY","volume_mt":94000,"program":"Food Aid","active":true},
    {"source":"AMM","target":"KBL","volume_mt":107000,"program":"Shelter & NFI","active":true},
    {"source":"NBO","target":"ADD","volume_mt":88000,"program":"Food Aid","active":true},
    {"source":"NBO","target":"DKR","volume_mt":72000,"program":"Food Aid","active":true},
    {"source":"ISB","target":"KBL","volume_mt":118000,"program":"Food Aid","active":true},
    {"source":"BKK","target":"ISB","volume_mt":64000,"program":"Logistics","active":true}
  ]
}
